[
   {
      "Market":{
         "market_id":"1",
         "name":"Anchor Point Farmers Market",
         "street":"33851 Alder St",
         "city":"Anchor Point",
         "state":"AK",
         "zip":"99556",
         "info":"Take Rose Ave to Alder, at Anchor Point Greenhouse",
         "lat":"59.7821",
         "lng":"-151.838",
         "website":"none",
         "0":{
            "Contact":{
               "contact_id":"1",
               "market_id":"1",
               "first":"Al",
               "last":"Poindexter",
               "phone":"907-235-7288",
               "email":"apgreenhouse@alaska.net",
               "address":"PO Box 13",
               "city":"Anchor Point"
            }
         }
      }
   },
   {
      "Market":{
         "market_id":"2",
         "name":"Anchor Point Saturday Farmers Market & Swap Meet",
         "street":"Corner of Sterling Hwy and Milo Fritz Road ",
         "city":"Anchor Point",
         "state":"AK",
         "zip":"99556",
         "info":"",
         "lat":"59.7796",
         "lng":"-151.833",
         "website":"none",
         "0":{
            "Contact":{
               "contact_id":"2",
               "market_id":"2",
               "first":"John & Dawn",
               "last":"Hoxie",
               "phone":"907-235-2264",
               "email":"redhawk@homernet.net",
               "address":"PO Box 529",
               "city":"Anchor Point"
            }
         }
      }
   },
   {
      "Market":{
         "market_id":"3",
         "name":"Anchorage Downtown Market & Festival",
         "street":"3rd Avenue Between C & E Streets",
         "city":"Anchorage",
         "state":"AK",
         "zip":"99501",
         "info":"",
         "lat":"61.2197",
         "lng":"-149.889",
         "website":"www.anchoragemarkets.com",
         "0":{
            "Contact":{
               "contact_id":"3",
               "market_id":"3",
               "first":"Bill",
               "last":"Webb",
               "phone":"907-272-5634",
               "email":"info@anchoragemarkets.com",
               "address":"741 East 13th Avenue",
               "city":"Anchorage"
            }
         }
      }
   },
   {
      "Market":{
         "market_id":"4",
         "name":"Anchorage Farmers Market",
         "street":"1420 Cordova Street",
         "city":"Anchorage",
         "state":"AK",
         "zip":"99501",
         "info":"",
         "lat":"61.2082",
         "lng":"-149.881",
         "website":"www.anchoragefarmersmarket.org",
         "0":{
            "Contact":{
               "contact_id":"4",
               "market_id":"4",
               "first":"River",
               "last":"Bean",
               "phone":"907-746-1087",
               "email":"info@anchoragefarmersmarket.org",
               "address":"1305 N Smith Rd",
               "city":"Palmer"
            }
         }
      }
   },
   {
      "Market":{
         "market_id":"5",
         "name":"Center Market",
         "street":"Denali St and E Benson",
         "city":"Anchorage",
         "state":"AK",
         "zip":"99503",
         "info":"The Mall at Sears. Inside mall- October to June, Outside in lot- June to October",
         "lat":"61.1937",
         "lng":"-149.876",
         "website":"www.thecentermarket.com",
         "0":{
            "Contact":{
               "contact_id":"5",
               "market_id":"5",
               "first":"Alex Davis",
               "last":"Duane Clark",
               "phone":"907-841-0621 or 907-355-8432",
               "email":"shop@thecentermarket.com",
               "address":"600 East Northern Lights Blvd",
               "city":"Anchorage"
            }
         }
      }
   },
   {
      "Market":{
         "market_id":"6",
         "name":"Northway Mall Wednesday Market",
         "street":"3101 Penland Pkwy",
         "city":"Anchorage",
         "state":"AK",
         "zip":"99508",
         "info":"Northway Mall",
         "lat":"61.2167",
         "lng":"-149.82",
         "website":"www.anchoragemarkets.com",
         "0":{
            "Contact":{
               "contact_id":"6",
               "market_id":"6",
               "first":"Bill",
               "last":"Webb",
               "phone":"907-272-5634",
               "email":"info@anchoragemarkets.com",
               "address":"741 East 13th Avenue",
               "city":"Anchorage"
            }
         }
      }
   },
   {
      "Market":{
         "market_id":"7",
         "name":"South Anchorage Farmers' Market",
         "street":"88th Ave",
         "city":"Anchorage",
         "state":"AK",
         "zip":"99515",
         "info":"Behind Dimond Mall, in front of Dimond Hotel. Use the Old Seward Hwy Mall entrance.",
         "lat":"61.1416",
         "lng":"-149.87",
         "website":"www.southanchoragefarmersmarket.com",
         "0":{
            "Contact":{
               "contact_id":"7",
               "market_id":"7",
               "first":"Arthur",
               "last":"Keyes",
               "phone":"907-354-5833",
               "email":"amkeyes@mtaonline.net",
               "address":"",
               "city":""
            }
         }
      }
   },
   {
      "Market":{
         "market_id":"8",
         "name":"Spenard Farmers Market",
         "street":"2590 Spenard Road",
         "city":"Anchorage",
         "state":"AK",
         "zip":"99503",
         "info":"Under the Windmill at Spenard and 26th. Chilkoot Charlie's parking lot.",
         "lat":"61.1975",
         "lng":"-149.905",
         "website":"www.spenardfarmersmarket.org",
         "0":{
            "Contact":{
               "contact_id":"8",
               "market_id":"8",
               "first":"Jae",
               "last":"Shin",
               "phone":"907-563-6273",
               "email":"spenardfarmersmarket@gmail.com",
               "address":"PO Box 90086 ",
               "city":"Anchorage"
            }
         }
      }
   },
   {
      "Market":{
         "market_id":"9",
         "name":"Bethel Farmers Market",
         "street":"Meyers Farm",
         "city":"Bethel",
         "state":"AK",
         "zip":"99559",
         "info":"",
         "lat":"60.7961",
         "lng":"-161.762",
         "website":"www.meyersfarm.net",
         "0":{
            "Contact":{
               "contact_id":"9",
               "market_id":"9",
               "first":"Tim",
               "last":"Meyers",
               "phone":"",
               "email":"meyersfarm@gmail.com",
               "address":"PO Box 30",
               "city":"Bethel"
            }
         }
      }
   },
   {
      "Market":{
         "market_id":"10",
         "name":"Peters Creek Farmers Market & Crafts",
         "street":"21426 Old Glenn Highway",
         "city":"Chugiak",
         "state":"AK",
         "zip":"99567",
         "info":"American Legion Post 33",
         "lat":"61.416",
         "lng":"-149.437",
         "website":"",
         "0":{
            "Contact":{
               "contact_id":"10",
               "market_id":"10",
               "first":"Susan",
               "last":"Boarland",
               "phone":"907-688-2354",
               "email":"",
               "address":"21643 Old Glenn Hwy",
               "city":"Chugiak"
            }
         }
      }
   },
   {
      "Market":{
         "market_id":"11",
         "name":"Copper Valley Farmers Market",
         "street":"201 Loop Road",
         "city":"Copper Valley",
         "state":"AK",
         "zip":"99573",
         "info":"Mr. View Gas\/ The Fishing Widow",
         "lat":"61.9808",
         "lng":"-145.326",
         "website":"",
         "0":{
            "Contact":{
               "contact_id":"11",
               "market_id":"11",
               "first":"Doug",
               "last":"Vollman",
               "phone":"907-259-5898",
               "email":"vollman@cvinternet.net",
               "address":"HC60 Box 53",
               "city":"Copper Center"
            }
         }
      }
   },
   {
      "Market":{
         "market_id":"12",
         "name":"Highway's End Farmers Market",
         "street":"Corner of Alaska Highway and Richardson Highway",
         "city":"Delta Junction",
         "state":"AK",
         "zip":"99731",
         "info":"At 'The Triangle' at the end of the AK Hwy across from the Visitor's Center",
         "lat":"64.0377",
         "lng":"-145.733",
         "website":"",
         "0":{
            "Contact":{
               "contact_id":"12",
               "market_id":"12",
               "first":"Jane",
               "last":"Hamilton",
               "phone":"907-895-4752",
               "email":"janehamilton99737@yahoo.com",
               "address":"PO Box 1416",
               "city":"Delta Junction"
            }
         }
      }
   },
   {
      "Market":{
         "market_id":"13",
         "name":"Dillingham Farm Stand",
         "street":"By the Hockey Rink",
         "city":"Dillingham",
         "state":"AK",
         "zip":"99576",
         "info":"",
         "lat":"59.041",
         "lng":"-158.461",
         "website":"",
         "0":{
            "Contact":{
               "contact_id":"13",
               "market_id":"13",
               "first":"Mark & Toni",
               "last":"Hermann",
               "phone":"",
               "email":"wmswmf7@yahoo.com",
               "address":"PO Box 612",
               "city":"Dillingham"
            }
         }
      }
   },
   {
      "Market":{
         "market_id":"14",
         "name":"Eagle River Tuesday Market",
         "street":"10527 VFW Rd",
         "city":"Eagle River",
         "state":"AK",
         "zip":"99577",
         "info":"Eagle River VFW Post Parking Lot",
         "lat":"61.3157",
         "lng":"-149.573",
         "website":"",
         "0":{
            "Contact":{
               "contact_id":"14",
               "market_id":"14",
               "first":"Lynn",
               "last":"Mattison",
               "phone":"907-696-4839",
               "email":"mattison@ak.net",
               "address":"11061 Katlian Dr",
               "city":"Eagle River"
            }
         }
      }
   },
   {
      "Market":{
         "market_id":"15",
         "name":"Saturday Eagle River Farmers Market",
         "street":"12110 Business Blvd",
         "city":"Eagle River",
         "state":"AK",
         "zip":"99577",
         "info":"Mike's Meats on the Business Loop",
         "lat":"61.3299",
         "lng":"-149.57",
         "website":"",
         "0":{
            "Contact":{
               "contact_id":"15",
               "market_id":"15",
               "first":"Arthur",
               "last":"Keyes",
               "phone":"907-354-5833",
               "email":"amkeyes@mtaonline.net",
               "address":"PO Box 3361",
               "city":"Palmer"
            }
         }
      }
   },
   {
      "Market":{
         "market_id":"16",
         "name":"Ester Community Market",
         "street":"3586 Old Nenana Hwy",
         "city":"Ester",
         "state":"AK",
         "zip":"99709",
         "info":"Ester Community Park",
         "lat":"64.8453",
         "lng":"-148.01",
         "website":"www.esteralaska.com",
         "0":{
            "Contact":{
               "contact_id":"16",
               "market_id":"16",
               "first":"",
               "last":"",
               "phone":"",
               "email":"market@esteralaska.com",
               "address":"PO Box 14",
               "city":"Ester"
            }
         }
      }
   },
   {
      "Market":{
         "market_id":"17",
         "name":"Fairbanks Downtown Market",
         "street":"550 1st Avenue",
         "city":"Fairbanks",
         "state":"AK",
         "zip":"99701",
         "info":"Golden Heart Plaza",
         "lat":"64.8443",
         "lng":"-147.72",
         "website":"www.downtownfairbanks.com",
         "0":{
            "Contact":{
               "contact_id":"17",
               "market_id":"17",
               "first":"Amy",
               "last":"Nordrum",
               "phone":"907-452-8671",
               "email":"amy@downtownfairbanks.com",
               "address":"410 Cushman St",
               "city":"Fairbanks"
            }
         }
      }
   },
   {
      "Market":{
         "market_id":"18",
         "name":"Tanana Valley Farmers Market",
         "street":"2600 College Road",
         "city":"Fairbanks",
         "state":"AK",
         "zip":"99708",
         "info":"College Road and Caribou Way",
         "lat":"64.8627",
         "lng":"-147.781",
         "website":"www.tvfmarket.com",
         "0":{
            "Contact":{
               "contact_id":"18",
               "market_id":"18",
               "first":"J.R.",
               "last":"Anderson",
               "phone":"907-456-3276",
               "email":"tvfmarket@gmail.com",
               "address":"PO Box 85138",
               "city":"Fairbanks"
            }
         }
      }
   },
   {
      "Market":{
         "market_id":"19",
         "name":"Haines Farmers Market",
         "street":"296 Fair Drive",
         "city":"Haines",
         "state":"AK",
         "zip":"99827",
         "info":"In the Fair Grounds at Payson's Pavilion or Dalton City",
         "lat":"59.232",
         "lng":"-135.467",
         "website":"www.hainesfarmersmarket.org",
         "0":{
            "Contact":{
               "contact_id":"19",
               "market_id":"19",
               "first":"Leslie",
               "last":"Evenden",
               "phone":"907-766-2476",
               "email":"director@seakfair.org",
               "address":"PO Box 385",
               "city":"Haines"
            }
         }
      }
   },
   {
      "Market":{
         "market_id":"20",
         "name":"Homer Farmers Market",
         "street":"1250 Ocean Drive",
         "city":"Homer",
         "state":"AK",
         "zip":"99603",
         "info":"Across from the Washboard",
         "lat":"59.6378",
         "lng":"-151.514",
         "website":"www.homerfarmersmarket.org",
         "0":{
            "Contact":{
               "contact_id":"20",
               "market_id":"20",
               "first":"Robbi",
               "last":"Mixon",
               "phone":"907-299-7540",
               "email":"manager@homerfarmersmarket.org",
               "address":"PO Box 2274",
               "city":"Homer"
            }
         }
      }
   },
   {
      "Market":{
         "market_id":"21",
         "name":"Meadow Drive Market",
         "street":"5023 Meadow Drive",
         "city":"Homer",
         "state":"AK",
         "zip":"99603",
         "info":"",
         "lat":"59.6637",
         "lng":"-151.466",
         "website":"www.themeadowdrivemarket.com",
         "0":{
            "Contact":{
               "contact_id":"21",
               "market_id":"21",
               "first":"Heather",
               "last":"Petrino",
               "phone":"907-235-4343",
               "email":"",
               "address":"5023 Meadow Drive",
               "city":"Homer"
            }
         }
      }
   },
   {
      "Market":{
         "market_id":"22",
         "name":"Houston Farmers\/Flea Market",
         "street":"10927 Big Lake Rd",
         "city":"Wasilla",
         "state":"AK",
         "zip":"99654",
         "info":"Meadow Woods Mall. Hosted by Homesteaders Country Store",
         "lat":"61.5754",
         "lng":"-149.728",
         "website":"",
         "0":{
            "Contact":{
               "contact_id":"22",
               "market_id":"22",
               "first":"",
               "last":"Bjornton",
               "phone":"907-892-4727",
               "email":"hscs@mtaonline.net",
               "address":"10927 W Parks Hwy",
               "city":"Houston"
            }
         }
      }
   },
   {
      "Market":{
         "market_id":"23",
         "name":"Juneau Sunday Market",
         "street":"350 Whittier St",
         "city":"Juneau",
         "state":"AK",
         "zip":"99801",
         "info":"Juneau Arts and Culture Center",
         "lat":"58.2998",
         "lng":"-134.413",
         "website":"www.jahc.org",
         "0":{
            "Contact":{
               "contact_id":"23",
               "market_id":"23",
               "first":"Eva",
               "last":"Bornstein",
               "phone":"907-586-2787",
               "email":"info@jahc.org",
               "address":"350 Whittier St. Suite 101",
               "city":"Juneau"
            }
         }
      }
   },
   {
      "Market":{
         "market_id":"24",
         "name":"Second Saturday Market",
         "street":"9121 Glacier Hwy",
         "city":"Juneau",
         "state":"AK",
         "zip":"99801",
         "info":"Airport Shopping Center near Homespun Mercantile",
         "lat":"58.3622",
         "lng":"-134.583",
         "website":"www.homespunmercantile.com",
         "0":{
            "Contact":{
               "contact_id":"24",
               "market_id":"24",
               "first":"Carol",
               "last":"Schriver",
               "phone":"907-523-5667",
               "email":"info@homespunmercantile.com",
               "address":"9121 Glacier Highway, #5",
               "city":"Juneau"
            }
         }
      }
   },
   {
      "Market":{
         "market_id":"25",
         "name":"Tustumena Farmers Market",
         "street":"58231 Sterling Hwy",
         "city":"Kasilof",
         "state":"AK",
         "zip":"99610",
         "info":"Tustumena Elementary",
         "lat":"60.3078",
         "lng":"-151.265",
         "website":"",
         "0":{
            "Contact":{
               "contact_id":"25",
               "market_id":"25",
               "first":"Shonia",
               "last":"Werner",
               "phone":"907-260-1345",
               "email":"swerner@kpbsd.k12.ak.us",
               "address":"PO Box 749",
               "city":"Kasilof"
            }
         }
      }
   },
   {
      "Market":{
         "market_id":"26",
         "name":"Kenai's Saturday Market",
         "street":"11471 Kenai Spur Hwy",
         "city":"Kenai",
         "state":"AK",
         "zip":"99611",
         "info":"Kenai Visitor & Cultural Center",
         "lat":"60.5548",
         "lng":"-151.261",
         "website":"www.visitkenai.com",
         "0":{
            "Contact":{
               "contact_id":"26",
               "market_id":"26",
               "first":"Harold",
               "last":"Piland",
               "phone":"907-283-1991",
               "email":"harold@visitkenai.com",
               "address":"11471 Kenai Spur Hwy",
               "city":"Kenai"
            }
         }
      }
   },
   {
      "Market":{
         "market_id":"27",
         "name":"Kodiak Downtown Market",
         "street":"312 West Marine Way",
         "city":"Kodiak",
         "state":"AK",
         "zip":"99615",
         "info":"Shoonaq Tribe Building between Center St & Marine Way",
         "lat":"57.7878",
         "lng":"-152.407",
         "website":"",
         "0":{
            "Contact":{
               "contact_id":"27",
               "market_id":"27",
               "first":"Marie",
               "last":"Rice",
               "phone":"907-487-2589",
               "email":"riceridg@ptialaska.net",
               "address":"10746 Bells Flats Rd",
               "city":"Kodiak"
            }
         }
      }
   },
   {
      "Market":{
         "market_id":"28",
         "name":"Kodiak Farmers Market",
         "street":"10102 Rezanof Dr W",
         "city":"Kodiak",
         "state":"AK",
         "zip":"99615",
         "info":"Fairgrounds",
         "lat":"57.717",
         "lng":"-152.566",
         "website":"",
         "0":{
            "Contact":{
               "contact_id":"28",
               "market_id":"28",
               "first":"Bernie",
               "last":"DePlazes",
               "phone":"907-487-2885",
               "email":"",
               "address":"522 Leta ",
               "city":"Kodiak"
            }
         }
      }
   },
   {
      "Market":{
         "market_id":"29",
         "name":"Christmas Creek Market",
         "street":"101 St. Nicholas Dr",
         "city":"North Pole",
         "state":"AK",
         "zip":"99705",
         "info":"Next to Santa Claus House",
         "lat":"64.7556",
         "lng":"-147.345",
         "website":"www.christmascreekmarket.com",
         "0":{
            "Contact":{
               "contact_id":"29",
               "market_id":"29",
               "first":"Nicole",
               "last":"Blizinski",
               "phone":"907-488-2200",
               "email":"nblizinski@santaclaushouse.com",
               "address":"101 St. Nicholas Dr",
               "city":"North Pole"
            }
         }
      }
   },
   {
      "Market":{
         "market_id":"30",
         "name":"Palmer Friday Flings",
         "street":"723 S. Valley Way",
         "city":"Palmer",
         "state":"AK",
         "zip":"99645",
         "info":"Pavillion across from Visitor's Center",
         "lat":"61.5986",
         "lng":"-149.114",
         "website":"www.palmerchamber.org\/events\/friday-fling.html",
         "0":{
            "Contact":{
               "contact_id":"30",
               "market_id":"30",
               "first":"Susan",
               "last":"Fouch",
               "phone":"907-355-9415",
               "email":"fridayfling@mtaonline.net",
               "address":"PO Box 45",
               "city":"Palmer"
            }
         }
      }
   },
   {
      "Market":{
         "market_id":"31",
         "name":"The Market in Petersburg",
         "street":"1st and Gjoa",
         "city":"Petersburg",
         "state":"AK",
         "zip":"99833",
         "info":"ANB Hall",
         "lat":"56.8118",
         "lng":"-132.956",
         "website":"",
         "0":{
            "Contact":{
               "contact_id":"31",
               "market_id":"31",
               "first":"Andrea",
               "last":"Weathers",
               "phone":"907-518-9469",
               "email":"psgmarket@yahoo.com",
               "address":"PO Box 167",
               "city":"Petersburg"
            }
         }
      }
   },
   {
      "Market":{
         "market_id":"32",
         "name":"Sitka Farmer's Market",
         "street":"235 Katlian Street",
         "city":"Sitka",
         "state":"AK",
         "zip":"99835",
         "info":"ANB Hall",
         "lat":"57.0503",
         "lng":"-135.34",
         "website":"www.sitkalocalfoodsnetwork.org",
         "0":{
            "Contact":{
               "contact_id":"32",
               "market_id":"32",
               "first":"Johanna",
               "last":"Willingham",
               "phone":"",
               "email":"sitkalocalfoodsnetwork@gmail.com",
               "address":"408 D Marine Street",
               "city":"Sitka"
            }
         }
      }
   },
   {
      "Market":{
         "market_id":"33",
         "name":"Central Kenai Peninsula Farmers Market",
         "street":"E. Corral Ave & Kenai Spur Hwy",
         "city":"Soldotna",
         "state":"AK",
         "zip":"99669",
         "info":"",
         "lat":"60.4926",
         "lng":"-151.068",
         "website":"",
         "0":{
            "Contact":{
               "contact_id":"33",
               "market_id":"33",
               "first":"Clayton",
               "last":"Hillhouse",
               "phone":"907-262-5463",
               "email":"clayton@alaska.net",
               "address":"PO Box 116",
               "city":"Soldotna"
            }
         }
      }
   },
   {
      "Market":{
         "market_id":"34",
         "name":"Kenny Lake Harvest",
         "street":"354 Fairbanks Dr",
         "city":"Valdez",
         "state":"AK",
         "zip":"99686",
         "info":"Rogue's Garden parking lot",
         "lat":"61.1297",
         "lng":"-146.359",
         "website":"",
         "0":{
            "Contact":{
               "contact_id":"34",
               "market_id":"34",
               "first":"Doug",
               "last":"Vollman",
               "phone":"907-259-5898",
               "email":"vollman@cvinternet.net",
               "address":"",
               "city":""
            }
         }
      }
   },
   {
      "Market":{
         "market_id":"35",
         "name":"Wasilla Farmers Market",
         "street":"391 Main St",
         "city":"Wasilla",
         "state":"AK",
         "zip":"99654",
         "info":"Behind Wasilla Public Library",
         "lat":"61.583",
         "lng":"-149.441",
         "website":"",
         "0":{
            "Contact":{
               "contact_id":"35",
               "market_id":"35",
               "first":"Margaret",
               "last":"Heaven",
               "phone":"907-376-5679",
               "email":"lemarhea@hotmail.com",
               "address":"2341 S. Davis Rd.",
               "city":"Wasilla"
            }
         }
      }
   },
   {
      "Market":{
         "market_id":"36",
         "name":"Willow Farmers Market",
         "street":"Mile 69 Parks Highway",
         "city":"Willow",
         "state":"AK",
         "zip":"99688",
         "info":"Across from Newman's Tesoro",
         "lat":"61.9313",
         "lng":"-150.076",
         "website":"",
         "0":{
            "Contact":{
               "contact_id":"36",
               "market_id":"36",
               "first":"Steve",
               "last":"Scott",
               "phone":"907-707-7368",
               "email":"tundradrone@yahoo.com",
               "address":"PO Box 81",
               "city":"Willow"
            }
         }
      }
   },
   {
      "Market":{
         "market_id":"37",
         "name":"Wrangell Farmers Market",
         "street":"300 Bennett St",
         "city":"Wrangell",
         "state":"AK",
         "zip":"99929",
         "info":"At the covered play area, near the school",
         "lat":"56.4731",
         "lng":"-132.375",
         "website":"",
         "0":{
            "Contact":{
               "contact_id":"37",
               "market_id":"37",
               "first":"Kris",
               "last":"Reed",
               "phone":"907-305-0258",
               "email":"kris.reed66@gmail.com",
               "address":"PO Box 273",
               "city":"Wrangell"
            }
         }
      }
   },
   {
      "Market":{
         "market_id":"38",
         "name":"Prince of Wales Farmers Market",
         "street":"618 Howard Valentine Dr",
         "city":"Coffman Cove ",
         "state":"AK",
         "zip":"99950",
         "info":"With the Arts and Seafood Festival ",
         "lat":"56.0126",
         "lng":"-132.827",
         "website":"www.powfarmersmarket.com",
         "0":{
            "Contact":{
               "contact_id":"38",
               "market_id":"38",
               "first":"Heather",
               "last":"Hedges",
               "phone":"907-329-2233",
               "email":"theolseahagsn@gmail.com",
               "address":"City of Thorne Bay, P.O. Box 110",
               "city":"Thorne Bay"
            }
         }
      }
   },
   {
      "Market":{
         "market_id":"39",
         "name":"Prince of Wales Farmers Market",
         "street":"500 Hilltop Dr",
         "city":"Craig ",
         "state":"AK",
         "zip":"99950",
         "info":"With the POW Marathon ",
         "lat":"55.4759",
         "lng":"-133.14",
         "website":"www.powfarmersmarket.com",
         "0":{
            "Contact":{
               "contact_id":"39",
               "market_id":"39",
               "first":"Heather",
               "last":"Hedges",
               "phone":"907-329-2233",
               "email":"theolseahagsn@gmail.com",
               "address":"City of Thorne Bay, P.O. Box 110",
               "city":"Thorne Bay"
            }
         }
      }
   },
   {
      "Market":{
         "market_id":"40",
         "name":"Prince of Wales Farmers Market",
         "street":"State Hwy 924",
         "city":"Hollis ",
         "state":"AK",
         "zip":"99950",
         "info":"With the Volunteer F.D. Raffle and Yard Sale ",
         "lat":"55.4722",
         "lng":"-132.685",
         "website":"www.powfarmersmarket.com",
         "0":{
            "Contact":{
               "contact_id":"40",
               "market_id":"40",
               "first":"Heather",
               "last":"Hedges",
               "phone":"907-329-2233",
               "email":"theolseahagsn@gmail.com",
               "address":"City of Thorne Bay, P.O. Box 110",
               "city":"Thorne Bay"
            }
         }
      }
   },
   {
      "Market":{
         "market_id":"41",
         "name":"Prince of Wales Farmers Market",
         "street":"8th St Exn",
         "city":"Hydaburg ",
         "state":"AK",
         "zip":"99950",
         "info":"With Cultural Camp ",
         "lat":"55.2053",
         "lng":"-132.822",
         "website":"www.powfarmersmarket.com",
         "0":{
            "Contact":{
               "contact_id":"41",
               "market_id":"41",
               "first":"Heather",
               "last":"Hedges",
               "phone":"907-329-2233",
               "email":"theolseahagsn@gmail.com",
               "address":"City of Thorne Bay, P.O. Box 110",
               "city":"Thorne Bay"
            }
         }
      }
   },
   {
      "Market":{
         "market_id":"42",
         "name":"Prince of Wales Farmers Market",
         "street":"S Thorne Bay Rd",
         "city":"Kasaan ",
         "state":"AK",
         "zip":"99950",
         "info":"With the Crab Festival ",
         "lat":"55.544",
         "lng":"-132.402",
         "website":"www.powfarmersmarket.com",
         "0":{
            "Contact":{
               "contact_id":"42",
               "market_id":"42",
               "first":"Heather",
               "last":"Hedges",
               "phone":"907-329-2233",
               "email":"theolseahagsn@gmail.com",
               "address":"City of Thorne Bay, P.O. Box 110",
               "city":"Thorne Bay"
            }
         }
      }
   },
   {
      "Market":{
         "market_id":"43",
         "name":"Prince of Wales Farmers Market",
         "street":"621 Union St",
         "city":"Klawock ",
         "state":"AK",
         "zip":"99950",
         "info":"With the Sockeye Festival",
         "lat":"55.5527",
         "lng":"-133.097",
         "website":"www.powfarmersmarket.com",
         "0":{
            "Contact":{
               "contact_id":"43",
               "market_id":"43",
               "first":"Heather",
               "last":"Hedges",
               "phone":"907-329-2233",
               "email":"theolseahagsn@gmail.com",
               "address":"City of Thorne Bay, P.O. Box 110",
               "city":"Thorne Bay"
            }
         }
      }
   },
   {
      "Market":{
         "market_id":"44",
         "name":"Prince of Wales Farmers Market",
         "street":"601 Svend's Dr S",
         "city":"Thorne Bay ",
         "state":"AK",
         "zip":"99950",
         "info":"",
         "lat":"55.6846",
         "lng":"-132.527",
         "website":"www.powfarmersmarket.com",
         "0":{
            "Contact":{
               "contact_id":"44",
               "market_id":"44",
               "first":"Heather",
               "last":"Hedges",
               "phone":"907-329-2233",
               "email":"theolseahagsn@gmail.com",
               "address":"City of Thorne Bay, P.O. Box 110",
               "city":"Thorne Bay"
            }
         }
      }
   }
]